City_ID,City,Cloudiness,Country,Date,Humidity,Lat,Lng,Max Temp,Wind Speed
0,kologriv,24,RU,1525129512,82,58.83,44.31,30.25,2.48
1,tiksi,48,RU,1525129460,90,71.64,128.87,33.76,21.61
2,rikitea,8,PF,1525129437,100,-23.12,-134.97,78.04,4.16
3,matagami,20,NG,1525129495,100,9.67,8.4,69.49,3.15
4,berlevag,64,NO,1525129512,100,70.86,29.09,28.18,7.18
5,qaanaaq,0,GL,1525129455,85,77.48,-69.36,1.99,6.4
6,puerto ayora,20,EC,1525125600,66,-0.74,-90.35,84.2,14.99
7,atuona,0,PF,1525129443,99,-9.8,-139.03,81.64,16.69
8,dikson,68,RU,1525129450,91,73.51,80.55,7.39,6.06
9,mayumba,88,GA,1525129512,100,-3.44,10.65,79.84,3.49
10,hamilton,75,BM,1525125300,78,32.3,-64.78,71.6,8.05
11,punta arenas,75,CL,1525125600,70,-53.16,-70.91,42.8,11.41
12,mataura,76,NZ,1525129438,92,-46.19,168.86,53.56,11.65
13,upernavik,0,GL,1525129444,99,72.79,-56.15,11.89,9.19
14,midleton,20,IE,1525127400,86,51.91,-8.17,41.0,8.05
15,grindavik,75,IS,1525127400,69,63.84,-22.43,37.4,12.75
16,sargatskoye,56,RU,1525129513,71,55.6,73.49,35.74,12.66
17,cidreira,68,BR,1525129480,98,-30.17,-50.22,70.3,6.06
18,thompson,75,CA,1525125600,31,55.74,-97.86,48.2,8.05
19,vanimo,32,PG,1525129492,100,-2.67,141.3,81.82,2.04
20,bredasdorp,36,ZA,1525129457,100,-34.53,20.04,57.07,8.97
21,ushuaia,20,AR,1525125600,95,-54.81,-68.31,41.0,6.93
22,port shepstone,24,ZA,1525129474,93,-30.74,30.45,67.06,8.08
23,vila velha,20,BR,1525125600,88,-3.71,-38.6,80.6,8.05
24,andrews,1,US,1525128780,35,32.32,-102.55,84.2,16.11
25,porto novo,0,BR,1525125600,64,-23.68,-45.44,69.8,4.7
26,kulhudhuffushi,32,MV,1525129514,100,6.62,73.07,82.45,4.16
27,laguna,5,MX,1525124400,27,27.52,-110.01,87.8,14.99
28,loiza,40,PR,1525125360,58,18.43,-65.88,82.4,16.11
29,lebu,92,ET,1525129441,98,8.96,38.73,52.39,2.71
30,whyalla,24,AU,1525125600,76,-33.04,137.58,48.2,6.93
31,provideniya,0,RU,1525127400,100,64.42,-173.23,32.0,11.18
32,kontagora,0,NG,1525129514,82,10.4,5.47,78.22,2.71
33,carnarvon,0,ZA,1525129448,70,-30.97,22.13,38.26,2.93
34,saint george,40,GR,1525125000,82,39.45,22.34,62.6,4.7
35,jamestown,20,AU,1525129441,55,-33.21,138.6,59.32,8.52
36,ancud,92,CL,1525129447,97,-41.87,-73.83,47.08,2.59
37,wangqing,92,CN,1525129515,60,43.31,129.76,50.32,3.04
38,santa maria,75,BR,1525125600,88,-29.69,-53.81,69.8,4.7
39,komagane,0,JP,1525129516,49,35.73,137.94,60.13,2.37
40,dongsheng,92,CN,1525129516,100,29.72,112.52,70.57,6.96
41,banka,92,IN,1525129516,97,24.88,86.92,69.22,7.74
42,chokurdakh,0,RU,1525129471,100,70.62,147.9,16.12,6.17
43,iqaluit,40,CA,1525125600,66,63.75,-68.52,12.2,11.41
44,lompoc,90,US,1525127700,55,34.64,-120.46,64.4,21.92
45,batagay-alyta,0,RU,1525129517,79,67.8,130.41,24.76,4.05
46,albany,90,US,1525128840,81,42.65,-73.75,50.0,4.7
47,bethel,90,US,1525125180,80,60.79,-161.76,39.2,25.28
48,churapcha,0,RU,1525129517,58,62.0,132.43,35.92,4.16
49,hofn,80,IS,1525129455,100,64.25,-15.21,39.61,8.63
50,hobart,0,AU,1525127400,62,-42.88,147.33,57.2,11.41
51,busselton,24,AU,1525129449,100,-33.64,115.35,61.57,16.69
52,hermanus,8,ZA,1525129459,81,-34.42,19.24,41.77,2.48
53,mahebourg,40,MU,1525125600,73,-20.41,57.7,77.0,11.41
54,hobyo,44,SO,1525129502,93,5.35,48.53,80.74,14.12
55,cayenne,90,GF,1525127400,94,4.94,-52.33,75.2,5.82
56,ponta do sol,8,BR,1525129439,73,-20.63,-46.0,63.19,1.59
57,kaitangata,12,NZ,1525129463,81,-46.28,169.85,54.91,14.67
58,bad hersfeld,36,DE,1525129517,66,50.87,9.71,46.27,19.15
59,bluff,8,AU,1525129444,51,-23.58,149.07,72.37,12.44
60,cap malheureux,40,MU,1525125600,73,-19.98,57.61,77.0,11.41
61,takoradi,24,GH,1525129518,97,4.89,-1.75,81.64,5.17
62,port alfred,0,ZA,1525129435,89,-33.59,26.89,67.24,16.8
63,sinnamary,88,GF,1525129518,97,5.38,-52.96,79.66,10.09
64,tecoanapa,75,MX,1525124700,62,16.99,-99.26,86.0,9.17
65,souillac,0,FR,1525127400,81,45.6,-0.6,48.2,1.12
66,hilo,90,US,1525125360,73,19.71,-155.08,77.0,5.82
67,barrow,0,AR,1525129442,85,-38.31,-60.23,44.02,3.71
68,sorong,0,ID,1525129475,100,-0.86,131.25,81.28,10.65
69,saint-philippe,90,CA,1525127700,87,45.36,-73.48,50.0,4.7
70,mount gambier,20,AU,1525129459,79,-37.83,140.78,54.91,5.17
71,victoria,75,BN,1525127400,94,5.28,115.24,78.8,3.38
72,touros,68,BR,1525129500,92,-5.2,-35.46,77.95,11.43
73,cabedelo,75,BR,1525125600,94,-6.97,-34.84,75.2,6.93
74,dali,8,CN,1525129519,100,25.6,100.24,49.42,1.92
75,airai,0,TL,1525129457,68,-8.93,125.41,74.08,2.04
76,xuddur,24,SO,1525129473,95,4.12,43.89,71.47,9.53
77,sandwick,0,GB,1525125000,86,54.57,-2.89,33.8,5.82
78,ketchikan,90,US,1525125180,53,55.34,-131.65,51.8,5.82
79,caravelas,32,BR,1525129504,97,-17.73,-39.27,79.57,10.54
80,kondagaon,8,IN,1525129519,64,19.59,81.66,76.15,12.77
81,port blair,88,IN,1525129487,100,11.67,92.75,85.87,12.1
82,vaini,92,IN,1525129436,94,15.34,74.49,70.84,2.71
83,lulea,8,SE,1525126800,93,65.58,22.15,35.6,4.7
84,villarrica,36,CL,1525129520,81,-39.28,-72.23,49.06,3.94
85,kapaa,20,US,1525125360,61,22.08,-159.32,77.0,9.17
86,kavieng,44,PG,1525129435,100,-2.57,150.8,81.73,5.73
87,umm kaddadah,0,SD,1525129520,29,13.6,26.69,65.62,2.71
88,cape town,0,ZA,1525125600,87,-33.93,18.42,50.0,2.24
89,constitucion,5,MX,1525124520,9,23.99,-104.67,82.4,19.46
90,dingle,20,PH,1525129454,78,11.0,122.67,82.99,8.97
91,inhambane,76,MZ,1525129520,100,-23.87,35.38,74.08,9.19
92,butaritari,64,KI,1525129436,100,3.07,172.79,82.81,12.66
93,sambava,56,MG,1525129473,100,-14.27,50.17,77.68,20.15
94,east london,0,ZA,1525129211,100,-33.02,27.91,70.39,20.27
95,tuktoyaktuk,90,CA,1525125600,86,69.44,-133.03,33.8,17.22
96,kalmunai,0,LK,1525129521,100,7.42,81.82,73.27,2.93
97,longyearbyen,90,NO,1525125000,92,78.22,15.63,26.6,2.24
98,lungi,36,SL,1525129521,77,9.22,-12.68,79.12,9.64
99,bandarbeyla,76,SO,1525129521,100,9.49,50.81,79.84,9.75
100,marawi,0,PH,1525129521,80,8.0,124.29,77.32,1.7
101,anaco,76,VE,1525129521,68,9.43,-64.46,79.84,16.58
102,olonets,44,RU,1525129521,77,60.98,32.97,41.59,5.5
103,avarua,75,CK,1525125600,74,-21.21,-159.78,80.6,8.05
104,charlestown,90,US,1525128660,66,41.38,-71.64,50.0,6.93
105,kununurra,0,AU,1525127400,77,-15.77,128.74,69.8,2.24
106,sechura,8,PE,1525129522,71,-5.56,-80.82,73.99,11.54
107,rocha,0,UY,1525129522,87,-34.48,-54.34,56.44,8.97
108,selikhino,0,RU,1525129522,62,50.37,137.51,45.01,5.17
109,college,90,US,1525125780,93,64.86,-147.8,39.2,5.82
110,esperance,20,TT,1525125600,69,10.24,-61.45,82.4,14.99
111,adrar,0,DZ,1525125600,9,27.87,-0.29,77.0,9.17
112,torbay,90,CA,1525125600,93,47.66,-52.73,35.6,6.93
113,sussex,90,CA,1525128300,93,45.72,-65.51,48.2,5.82
114,guerrero negro,0,MX,1525129493,69,27.97,-114.04,64.09,15.46
115,seydi,0,NE,1525129523,57,13.34,7.75,73.72,3.04
116,mercedes,80,UY,1525129523,96,-33.25,-58.03,63.91,13.78
117,tabuk,0,PH,1525129461,72,17.41,121.44,75.43,2.04
118,hithadhoo,76,MV,1525129451,99,-0.6,73.08,85.24,18.03
119,luderitz,0,NA,1525129523,83,-26.65,15.16,58.96,4.16
120,tasiilaq,0,GL,1525125000,68,65.61,-37.64,26.6,5.82
121,nouadhibou,36,MR,1525125600,52,20.93,-17.03,66.2,20.8
122,vaitape,32,PF,1525129524,98,-16.52,-151.75,83.44,11.54
123,ginda,20,IN,1525129524,63,30.69,78.49,46.72,2.59
124,kjollefjord,76,NO,1525129524,94,70.95,27.35,30.16,5.61
125,sverdlovskiy,0,RU,1525127400,76,55.9,38.14,53.6,11.18
126,geraldton,75,CA,1525125600,38,49.72,-86.95,59.0,12.75
127,hasaki,20,JP,1525127400,88,35.73,140.83,66.2,4.7
128,cherskiy,76,RU,1525129443,93,68.75,161.3,19.81,3.04
129,suleja,0,NG,1525129524,93,9.18,7.18,73.63,3.04
130,big bend,92,SZ,1525125600,93,-26.79,31.94,59.0,6.93
131,lorengau,68,PG,1525129460,100,-2.02,147.27,83.35,5.95
132,saskylakh,80,RU,1525129448,98,71.97,114.09,34.57,15.46
133,yellowknife,75,CA,1525125600,48,62.45,-114.38,39.2,14.99
134,kirundo,40,BI,1525127400,100,-2.59,30.09,64.4,2.24
135,seda,64,LV,1525129525,66,57.65,25.75,53.2,10.76
136,ilulissat,75,GL,1525125000,53,69.22,-51.1,21.2,2.24
137,saint anthony,90,US,1525126980,86,43.97,-111.68,42.8,3.36
138,kargil,44,PK,1525129525,76,34.56,76.13,1.09,0.92
139,graz,0,AT,1525127400,54,47.07,15.44,59.0,6.93
140,schitu,0,RO,1525127400,72,44.35,24.57,59.0,4.7
141,peleduy,64,RU,1525129526,66,59.63,112.75,39.97,5.17
142,kodiak,1,US,1525125180,32,39.95,-94.76,82.4,26.4
143,beringovskiy,0,RU,1525129490,95,63.05,179.32,32.86,8.52
144,banda aceh,20,ID,1525129526,100,5.56,95.32,75.79,3.38
145,naze,75,NG,1525125600,83,5.43,7.07,80.6,3.36
146,xai-xai,76,MZ,1525129526,100,-25.04,33.64,71.83,7.96
147,gimli,88,CA,1525129527,77,50.63,-96.99,42.67,20.04
148,aquiraz,20,BR,1525125600,88,-3.9,-38.39,80.6,8.05
149,teahupoo,20,PF,1525127400,62,-17.83,-149.27,86.0,9.17
150,sao filipe,8,CV,1525129452,97,14.9,-24.5,71.02,20.49
151,new norfolk,0,AU,1525127400,62,-42.78,147.06,57.2,11.41
152,broken hill,68,AU,1525129500,43,-31.97,141.45,65.44,9.64
153,port moresby,75,PG,1525125600,78,-9.47,147.16,78.8,5.82
154,abha,0,SA,1525125600,82,18.22,42.5,66.2,1.48
155,evensk,80,RU,1525129466,93,61.92,159.24,31.87,2.71
156,sao miguel do iguacu,0,BR,1525125600,83,-25.35,-54.24,82.4,2.24
157,isangel,56,VU,1525129469,100,-19.55,169.27,75.61,13.44
158,natal,80,BR,1525129231,94,-5.81,-35.21,75.97,9.08
159,ouango,56,CD,1525129528,94,4.31,22.55,72.28,2.15
160,saint-leu,90,RE,1525127400,68,-21.15,55.28,75.2,5.82
161,ropcha,0,UA,1525127400,71,48.1,25.76,55.4,9.17
162,honningsvag,88,NO,1525129528,100,70.98,25.97,30.34,4.16
163,tura,8,IN,1525129457,98,25.52,90.21,66.52,3.94
164,castro,92,CL,1525129462,100,-42.48,-73.76,45.37,2.93
165,bundaberg,92,AU,1525129471,100,-24.87,152.35,73.81,18.59
166,fortuna,75,ES,1525127400,87,38.18,-1.13,57.2,2.24
167,ostrovnoy,56,RU,1525129438,85,68.05,39.51,24.67,6.62
168,tocopilla,64,CL,1525129529,100,-22.09,-70.2,61.3,5.73
169,wanning,0,AT,1525126800,66,48.64,13.53,53.6,8.05
170,magadan,0,RU,1525127400,55,59.56,150.8,35.6,3.49
171,lagoa,0,PT,1525127400,76,37.14,-8.45,53.6,9.17
172,oranjestad,40,AW,1525125600,83,12.52,-70.03,82.4,20.8
173,tateyama,75,JP,1525125600,55,36.66,137.31,64.4,5.82
174,taoudenni,0,ML,1525129530,18,22.68,-3.98,67.78,9.98
175,camacha,20,PT,1525127400,76,33.08,-16.33,60.8,8.05
176,artesia,1,US,1525127700,10,32.84,-104.4,89.6,18.34
177,chuy,0,UY,1525129437,92,-33.69,-53.46,61.93,13.78
178,luchenza,88,MW,1525129530,95,-16.01,35.31,64.81,2.93
179,khatanga,88,RU,1525129438,95,71.98,102.47,20.89,15.01
180,hambantota,36,LK,1525129530,100,6.12,81.12,82.0,9.42
181,urusha,20,RU,1525129530,49,54.05,122.9,43.48,3.38
182,san policarpo,100,PH,1525129531,96,12.18,125.51,81.82,10.09
183,leningradskiy,36,RU,1525129531,100,69.38,178.42,17.56,22.73
184,outjo,0,NA,1525129531,66,-20.11,16.16,52.57,4.05
185,temirtau,0,KZ,1525127400,81,50.05,72.96,42.8,6.71
186,dhidhdhoo,32,MV,1525129531,100,6.88,73.1,82.45,4.16
187,severo-kurilsk,44,RU,1525129447,95,50.68,156.12,34.66,7.63
188,bria,8,CF,1525129531,76,6.54,21.99,74.26,4.61
189,namibe,0,AO,1525129532,100,-15.19,12.15,77.68,7.18
190,contamana,20,PE,1525129532,70,-7.35,-75.01,82.9,3.49
191,seoul,75,KR,1525127400,82,37.57,126.98,66.2,2.24
192,moree,20,AU,1525129532,56,-29.46,149.84,65.08,4.61
193,port elizabeth,1,US,1525125360,20,39.31,-74.98,68.0,17.22
194,harper,75,US,1525128660,57,30.3,-99.24,78.8,17.22
195,corowa,0,AU,1525125600,86,-36.0,146.39,44.6,4.5
196,kargasok,0,RU,1525129500,98,59.06,80.87,36.82,4.5
197,itarema,56,BR,1525129533,99,-2.92,-39.92,75.52,4.38
198,katherine,0,AU,1525127400,78,-14.47,132.26,71.6,4.7
199,necochea,24,AR,1525129533,89,-38.55,-58.74,48.61,5.5
200,trairi,56,BR,1525129533,100,-3.28,-39.27,81.64,13.0
201,vila franca do campo,20,PT,1525127400,87,37.72,-25.43,59.0,9.17
202,pangnirtung,48,CA,1525129459,86,66.15,-65.72,4.15,19.71
203,sorland,0,NO,1525129534,100,67.67,12.69,38.8,14.56
204,nagybaracska,0,HU,1525127400,93,46.04,18.91,60.8,8.05
205,flinders,0,AU,1525125600,76,-34.58,150.85,53.6,12.75
206,mandalgovi,0,MN,1525129534,70,45.76,106.27,35.29,4.94
207,nemuro,44,JP,1525129534,91,43.32,145.57,41.32,11.54
208,mabaruma,92,GY,1525129534,83,8.2,-59.78,79.84,8.08
209,chapais,1,CA,1525125600,16,49.78,-74.86,55.4,9.17
210,lagoa da prata,24,BR,1525129534,60,-20.02,-45.54,67.69,4.05
211,nome,75,US,1525127700,57,30.04,-94.42,77.0,11.41
212,sola,75,NO,1525126800,76,58.89,5.65,50.0,4.7
213,prince rupert,90,CA,1525125600,70,54.32,-130.32,46.4,9.17
214,jardim,32,BR,1525129535,63,-21.48,-56.15,77.86,3.15
215,yulara,0,AU,1525129486,35,-25.24,130.99,64.09,8.41
216,ribeira grande,92,PT,1525129492,100,38.52,-28.7,61.3,15.23
217,haimen,92,CN,1525129535,88,31.87,121.18,69.04,6.17
218,araouane,0,ML,1525129535,12,18.9,-3.53,76.51,11.1
219,svetlaya,0,RU,1525129536,70,46.54,138.33,46.54,5.39
220,tezu,92,IN,1525129536,81,27.93,96.16,58.87,1.36
221,shelburne,1,CA,1525125600,25,44.08,-80.2,66.2,8.05
222,grand gaube,40,MU,1525125600,73,-20.01,57.66,77.0,11.41
223,gamboma,64,CG,1525129536,90,-1.87,15.88,74.26,6.62
224,samarai,92,PG,1525129536,100,-10.62,150.67,80.92,18.25
225,susice,75,CZ,1525125600,66,49.23,13.52,53.6,4.7
226,cabo san lucas,5,MX,1525124640,42,22.89,-109.91,82.4,10.29
227,norman wells,75,CA,1525125600,44,65.28,-126.83,41.0,4.7
228,arraial do cabo,0,BR,1525125600,83,-22.97,-42.02,73.4,6.93
229,te anau,64,NZ,1525129478,96,-45.41,167.72,48.7,3.94
230,ouadda,56,CF,1525129537,56,8.07,22.4,78.94,6.73
231,kutum,0,SD,1525129537,36,14.2,24.66,62.47,5.61
232,vila,0,IT,1525126800,58,45.18,8.4,57.2,6.93
233,djibo,0,BF,1525129537,63,14.1,-1.63,78.85,2.71
234,amahai,68,ID,1525129537,100,-3.31,129.0,81.37,6.17
235,kajaani,0,FI,1525126800,69,64.22,27.73,39.2,2.24
236,narsaq,90,GL,1525125000,86,60.91,-46.05,26.6,10.29
237,santa fe,100,AR,1525129489,98,-31.62,-60.7,68.68,11.54
238,oyama,75,JP,1525125600,93,36.31,139.8,62.6,2.24
239,ukiah,1,US,1525125360,42,39.15,-123.21,64.4,9.17
240,onega,0,RU,1525129539,95,63.91,38.09,22.6,5.95
241,maracas,20,TT,1525125600,69,10.76,-61.44,82.4,14.99
242,petropavlovka,0,RU,1525129539,82,50.61,105.32,39.97,2.37
243,selma,1,US,1525127700,32,36.57,-119.61,71.6,8.05
244,urbano santos,88,BR,1525129539,96,-3.2,-43.39,73.9,5.06
245,pueblo nuevo,0,MX,1525129540,41,23.99,-106.96,85.87,4.05
246,empalme,40,MX,1525124400,22,27.96,-110.81,86.0,18.34
247,aborlan,20,PH,1525125600,88,9.44,118.55,77.0,6.93
248,ortigueira,0,ES,1525127400,70,43.68,-7.85,48.2,2.24
249,nacala,56,MZ,1525129210,94,-14.56,40.69,81.01,11.77
250,khorinsk,0,RU,1525129541,45,52.16,109.78,35.47,3.15
251,mount isa,32,AU,1525125600,43,-20.73,139.49,71.6,4.7
252,neuquen,0,AR,1525125600,47,-38.95,-68.06,57.2,9.17
253,nikolskoye,88,RU,1525127400,86,59.7,30.79,41.0,8.95
254,waiuku,56,NZ,1525127400,82,-37.25,174.73,64.4,4.7
255,erdaojiang,88,CN,1525129541,66,41.78,126.03,52.57,3.04
256,cortez,20,US,1525125180,8,37.35,-108.58,69.8,24.16
257,gravdal,92,NO,1525126800,61,59.79,5.78,50.0,6.93
258,mar del plata,12,AR,1525129448,72,-46.43,-67.52,45.19,13.11
259,plastun,48,RU,1525129542,47,44.76,136.29,52.39,2.48
260,matamoros,90,US,1525128720,61,25.87,-97.51,86.0,20.8
261,keti bandar,0,PK,1525129542,95,24.14,67.45,83.17,17.81
262,novikovo,0,UA,1525129542,92,45.05,34.56,49.42,3.71
263,los gatos,20,US,1525127700,51,37.23,-121.97,66.2,17.22
264,jodhpur,0,IN,1525129543,33,26.3,73.04,74.89,6.06
265,zhaoyuan,80,CN,1525129543,40,45.52,125.08,57.34,8.41
266,salalah,75,OM,1525125000,83,17.01,54.1,84.2,8.05
267,warrnambool,0,AU,1525129543,97,-38.38,142.48,57.25,8.75
268,kvarkeno,80,RU,1525129543,65,52.08,59.73,37.27,10.42
269,lakatoro,75,VU,1525125600,88,-16.11,167.42,78.8,6.93
270,kavaratti,0,IN,1525129479,100,10.57,72.64,85.24,2.71
271,san quintin,20,PH,1525125600,94,17.54,120.52,77.0,2.24
272,pangkalanbuun,44,ID,1525129544,89,-2.68,111.62,78.22,4.61
273,namatanai,68,PG,1525129544,100,-3.66,152.44,82.0,10.65
274,mancora,12,PE,1525129544,68,-4.1,-81.05,77.41,3.71
275,yoichi,0,JP,1525129544,84,43.19,140.77,49.33,3.49
276,meulaboh,32,ID,1525129453,100,4.14,96.13,79.21,2.71
277,kruisfontein,0,ZA,1525129453,87,-34.0,24.73,61.39,12.1
278,casa grande,1,US,1525125360,13,32.88,-111.76,84.2,13.87
279,fonte boa,32,BR,1525129545,95,-2.51,-66.09,74.71,1.92
280,saldanha,24,PT,1525129441,99,41.42,-6.55,38.26,2.15
281,comodoro rivadavia,0,AR,1525125600,37,-45.87,-67.48,53.6,4.7
282,jiblah,48,YE,1525129545,89,13.92,44.15,57.7,2.15
283,la ronge,20,CA,1525125600,14,55.1,-105.3,51.8,8.05
284,dukat,12,RS,1525129545,93,42.44,22.31,49.6,2.15
285,bulawayo,24,ZW,1525129545,80,-20.16,28.59,54.91,7.63
286,piterka,12,RU,1525129545,40,50.68,47.44,60.31,14.23
287,muros,20,ES,1525127400,81,42.77,-9.06,44.6,3.36
288,sardhana,0,IN,1525129546,63,29.15,77.61,74.26,15.57
289,shingu,8,JP,1525129452,82,33.72,135.99,67.78,2.37
290,kapit,64,MY,1525129546,97,2.02,112.94,75.16,2.71
291,saint-augustin,75,FR,1525127400,93,44.83,-0.61,46.4,3.36
292,zyryanovsk,92,KZ,1525129546,74,49.74,84.27,48.07,3.15
293,sierre,75,CH,1525126800,54,46.29,7.53,55.4,3.36
294,acapulco,75,MX,1525124700,62,16.86,-99.88,86.0,9.17
295,zhanakorgan,0,KZ,1525129546,57,43.91,67.25,52.12,10.98
296,saint-francois,75,FR,1525127400,87,46.42,3.91,46.4,4.7
297,kralendijk,92,BQ,1525125300,78,12.15,-68.27,82.4,18.34
298,hualmay,44,PE,1525129449,86,-11.1,-77.61,68.86,5.73
299,dodge city,1,US,1525125240,37,37.75,-100.02,82.4,35.57
300,nhulunbuy,90,AU,1525125600,74,-12.18,136.78,78.8,6.93
301,pandan,64,PH,1525129547,100,11.72,122.09,80.47,8.08
302,tautira,20,PF,1525127400,62,-17.73,-149.15,86.0,9.17
303,manzhouli,8,CN,1525129547,31,49.6,117.43,45.73,4.72
304,kendal,20,ID,1525129548,90,-6.92,110.2,74.44,2.71
305,gediz,8,TR,1525129548,89,38.99,29.39,46.54,2.15
306,maiduguri,0,NG,1525129440,42,11.84,13.15,78.67,5.06
307,mehamn,76,NO,1525129548,94,71.03,27.85,30.16,5.61
308,antofagasta,75,CL,1525125600,77,-23.65,-70.4,62.6,12.75
309,mangai,32,CD,1525129548,93,-4.07,19.59,75.16,2.04
310,avera,1,US,1525127700,23,33.19,-82.53,77.0,2.59
311,pisco,0,PE,1525125600,73,-13.71,-76.2,71.6,23.04
312,jennings,1,US,1525127700,32,30.22,-92.66,82.4,6.93
313,lavrentiya,36,RU,1525129494,100,65.58,-170.99,23.14,22.06
314,nuuk,90,GL,1525125000,79,64.17,-51.74,28.4,12.75
315,coolum beach,0,AU,1525129549,76,-26.53,153.09,73.54,9.08
316,okha,68,RU,1525129549,95,53.59,142.95,32.5,8.41
317,lima,44,PE,1525129549,85,-12.06,-77.04,64.09,2.15
318,bambous virieux,40,MU,1525125600,73,-20.34,57.76,77.0,11.41
319,honolulu,75,US,1525125420,54,21.3,-157.86,78.8,13.87
320,georgetown,20,GY,1525125600,78,6.8,-58.16,80.6,11.41
321,yenagoa,44,NG,1525129549,93,4.92,6.26,75.43,4.94
322,tsaratanana,0,MG,1525129550,74,-16.8,47.65,69.31,13.44
323,lakes entrance,0,AU,1525129550,86,-37.88,147.99,58.06,3.94
324,villa carlos paz,90,AR,1525125600,100,-31.42,-64.5,60.8,9.17
325,zhezkazgan,0,KZ,1525129550,68,47.8,67.71,38.89,7.63
326,cookeville,1,US,1525127700,23,36.16,-85.5,75.2,4.7
327,amapa,88,HN,1525129550,88,15.09,-87.97,73.09,2.04
328,artyom,92,RU,1525127400,45,43.36,132.19,46.4,4.47
329,imeni poliny osipenko,0,RU,1525129550,65,52.42,136.49,42.49,4.61
330,provost,0,CA,1525129551,31,52.35,-110.26,56.53,4.72
331,paamiut,92,GL,1525129441,93,61.99,-49.67,33.67,13.78
332,christchurch,0,NZ,1525127400,81,-43.53,172.64,53.6,1.12
333,orshanka,0,RU,1525129551,95,56.92,47.89,38.17,6.4
334,waipawa,20,NZ,1525129551,92,-39.94,176.59,60.31,6.96
335,kayseri,20,TR,1525126800,71,38.73,35.48,51.8,2.24
336,kizilskoye,92,RU,1525129551,90,52.73,58.89,39.43,8.97
337,zemio,64,CF,1525129552,90,5.02,25.13,71.47,2.59
338,san cristobal,90,EC,1525125600,76,-0.39,-78.55,57.2,5.82
339,russell,0,AR,1525125600,51,-33.01,-68.8,62.6,3.36
340,leninskoye,0,RU,1525127400,93,54.82,82.85,44.6,6.71
341,ludvika,92,SE,1525126800,60,60.15,15.18,41.0,6.93
342,hrodna,0,BY,1525129553,69,53.68,23.83,63.82,14.0
343,belogorsk,0,UA,1525129553,92,45.06,34.59,49.42,3.71
344,sangre grande,20,TT,1525125600,69,10.59,-61.13,82.4,14.99
345,shahreza,0,IR,1525129553,86,32.01,51.87,35.74,2.15
346,uvat,20,RU,1525129553,78,59.14,68.9,22.96,5.39
347,noumea,88,NC,1525127400,78,-22.28,166.46,71.6,8.05
348,bose,40,IT,1525126800,67,45.46,8.01,57.2,10.29
349,pochutla,75,MX,1525128300,97,15.74,-96.47,89.6,11.41
350,parsons,1,US,1525127700,36,37.34,-95.26,82.4,12.75
351,mudon,80,MM,1525129554,100,16.26,97.73,74.89,2.15
352,cairns,20,AU,1525125600,73,-16.92,145.77,73.4,14.99
353,mumbwa,0,ZM,1525129554,76,-14.99,27.06,58.6,8.41
354,gambela,12,ET,1525129555,82,8.25,34.59,61.39,1.14
355,vryheid,92,ZA,1525129555,96,-27.77,30.79,52.75,3.38
356,guarapari,20,BR,1525125600,94,-20.67,-40.5,75.2,2.24
357,le mars,1,US,1525127700,32,42.79,-96.17,84.2,28.86
358,soyo,44,AO,1525129555,98,-6.13,12.37,76.6,2.48
359,san patricio,48,PY,1525129555,75,-26.98,-56.83,76.78,2.37
360,marzuq,36,YE,1525129555,93,14.4,46.47,59.23,2.15
361,mitu,8,IR,1525129463,94,36.2,46.09,34.57,2.15
362,nouakchott,12,MR,1525129556,88,18.08,-15.98,69.22,20.49
363,gueugnon,75,FR,1525127400,87,46.6,4.06,46.4,4.7
364,media luna,75,BO,1525125600,56,-21.67,-64.63,73.4,4.7
365,luang prabang,88,LA,1525129556,97,19.89,102.14,68.14,1.48
366,vardo,1,US,1525128780,15,39.62,-77.74,69.8,18.34
367,isfana,40,KG,1525127400,55,39.84,69.53,66.2,11.18
368,shizunai,0,JP,1525129556,72,42.33,142.37,58.69,8.75
369,baghdad,0,IQ,1525129557,86,33.3,44.38,61.39,2.93
370,tondano,20,ID,1525127400,94,1.3,124.91,77.0,2.24
371,yumen,0,CN,1525129557,30,40.29,97.04,39.79,7.18
372,tianpeng,92,CN,1525129557,99,28.88,112.34,71.02,3.49
373,moyale,92,ET,1525129557,98,3.52,39.05,66.07,3.15
374,zinder,0,NE,1525129557,60,13.81,8.99,73.81,3.38
375,hami,0,CN,1525129557,36,42.84,93.51,53.47,10.76
376,kahului,40,US,1525125360,69,20.89,-156.47,78.8,8.05
377,kuusamo,0,FI,1525126800,63,65.96,29.19,30.2,3.36
378,awbari,0,LY,1525129558,27,26.59,12.77,68.77,8.08
379,anderson,1,US,1525128900,30,34.51,-82.65,75.2,4.5
380,dyersburg,1,US,1525127700,22,36.03,-89.39,78.8,6.93
381,walvis bay,0,NA,1525125600,77,-22.95,14.51,59.0,3.36
382,bazarnyye mataki,0,RU,1525129559,91,54.9,49.93,44.38,11.65
383,tevriz,76,RU,1525129559,72,57.51,72.4,30.07,8.52
384,pacific grove,75,US,1525128000,58,36.62,-121.92,62.6,16.11
385,bonnyville,20,CA,1525125600,22,54.27,-110.74,55.4,9.17
386,bilma,0,NE,1525129455,23,18.69,12.92,73.9,2.71
387,filingue,0,NE,1525129559,43,14.35,3.32,82.09,5.5
388,shebalino,92,RU,1525129559,34,51.29,85.68,50.68,5.17
389,lufilufi,75,WS,1525125600,70,-13.87,-171.6,87.8,6.93
390,olinda,75,EC,1525125600,62,-2.03,-79.75,84.2,6.93
391,washington,1,US,1525128720,14,38.9,-77.04,71.6,16.11
392,richards bay,100,ZA,1525129483,100,-28.77,32.06,64.0,2.37
393,rupert,40,US,1525125900,37,42.62,-113.68,53.6,12.75
394,miri,0,NG,1525129560,68,10.31,9.75,75.34,4.5
395,swan river,68,CA,1525129560,43,52.11,-101.27,44.92,8.75
396,zhigansk,24,RU,1525129481,68,66.77,123.37,33.58,7.74
397,husavik,88,CA,1525129444,77,50.56,-96.99,42.67,20.04
398,kutoarjo,0,ID,1525129561,94,-7.72,109.9,76.69,3.94
399,vao,76,EE,1525129490,97,59.1,26.19,40.51,8.19
400,phangnga,40,TH,1525127400,88,8.45,98.53,77.0,2.24
401,pevek,36,RU,1525129444,100,69.7,170.27,22.15,9.64
402,agadez,0,NE,1525129561,21,16.97,7.99,77.59,6.51
403,sur,0,OM,1525129485,78,22.57,59.53,85.69,7.4
404,pinawa,88,CA,1525129561,73,50.15,-95.88,51.04,17.58
405,shimoda,0,JP,1525129561,88,34.7,138.93,67.24,9.53
406,galesong,20,ID,1525127400,94,-5.32,119.37,73.4,8.19
407,la rioja,80,AR,1525129562,59,-29.41,-66.86,68.59,0.47
408,mantua,0,IT,1525126800,62,45.16,10.79,57.2,2.24
409,westport,80,IE,1525129562,86,53.8,-9.52,45.01,14.56
410,mudgee,36,AU,1525129562,100,-32.6,149.59,55.27,4.94
411,haines junction,0,CA,1525129502,49,60.75,-137.51,42.04,3.38
412,baie-comeau,90,CA,1525128180,93,49.22,-68.15,44.6,6.93
413,rawson,48,AR,1525129467,59,-43.3,-65.11,43.75,9.53
414,kaohsiung,75,TW,1525127400,83,22.62,120.31,78.8,5.82
415,banfora,8,BF,1525129563,70,10.64,-4.75,78.49,5.17
416,katobu,12,ID,1525129563,94,-4.94,122.53,82.54,4.61
417,mugur-aksy,12,RU,1525129563,65,50.38,90.44,17.11,2.04
418,grafton,36,AU,1525129563,86,-29.69,152.93,67.24,4.94
419,gat,0,SN,1525129476,41,14.69,-16.54,76.06,15.12
420,turukhansk,80,RU,1525129563,100,65.8,87.96,31.06,16.13
421,port hedland,0,AU,1525129483,70,-20.31,118.58,75.79,3.6
422,san francisco,1,US,1525127700,52,37.78,-122.42,66.2,12.75
423,conceicao das alagoas,0,BR,1525129564,51,-19.91,-48.39,73.72,7.07
424,dutlwe,8,BW,1525129564,59,-23.98,23.93,59.14,9.19
425,zhanaozen,0,KZ,1525129564,45,43.35,52.85,51.67,7.52
426,methoni,20,GR,1525126800,77,36.82,21.7,60.8,4.05
427,praia da vitoria,40,PT,1525125600,93,38.73,-27.07,59.0,14.56
428,aksu,75,KZ,1525127400,81,52.04,76.93,42.8,4.47
429,ruteng,12,ID,1525129565,98,-8.61,120.46,72.55,3.38
430,nanortalik,88,GL,1525129565,94,60.14,-45.24,30.61,16.02
431,galveston,1,US,1525127700,21,40.58,-86.19,75.2,16.11
432,coos bay,20,US,1525127700,66,43.37,-124.22,53.6,13.87
433,chota,92,EC,1525129565,96,0.47,-78.07,54.73,1.03
434,hauterive,90,FR,1525127400,75,46.09,3.45,46.4,3.36
435,sotouboua,8,TG,1525129566,78,8.56,0.98,77.14,6.17
436,khandyga,32,RU,1525129566,65,62.65,135.58,36.73,3.38
437,grootfontein,44,NA,1525129566,72,-19.56,18.1,52.21,3.71
438,coralville,1,US,1525127700,26,41.68,-91.58,84.2,20.8
439,syracuse,75,US,1525125360,25,43.05,-76.15,60.8,20.8
440,tarija,75,BO,1525125600,56,-21.53,-64.73,73.4,4.7
441,katsuura,75,JP,1525126680,87,33.93,134.5,62.6,3.36
442,muzhi,24,RU,1525129566,71,65.4,64.7,11.35,3.38
443,ayan,0,TR,1525129567,62,40.67,33.6,40.06,1.92
444,belaya gora,8,RU,1525129567,100,68.54,146.19,26.11,4.38
445,bridlington,92,GB,1525126800,75,54.08,-0.19,42.8,12.75
446,paraisopolis,0,BR,1525125600,68,-22.55,-45.78,69.8,1.14
447,victor harbor,0,AU,1525127400,44,-35.55,138.62,59.0,6.93
448,srednekolymsk,80,RU,1525129567,72,67.46,153.71,23.41,3.6
449,porto nacional,0,BR,1525125600,65,-10.7,-48.41,82.4,1.92
450,radzyn podlaski,8,PL,1525129567,68,51.78,22.62,63.82,9.75
451,listowel,0,IE,1525127400,75,52.45,-9.48,44.6,8.05
452,aykhal,44,RU,1525129568,78,65.95,111.51,36.73,10.42
453,rio gallegos,0,AR,1525125600,75,-51.62,-69.22,41.0,6.93
454,lazarev,80,RU,1525129568,91,52.23,141.51,33.49,2.59
455,congonhas,0,BR,1525129568,80,-20.5,-43.86,54.73,3.04
456,pucara,40,BO,1525125600,37,-16.6,-68.57,55.4,8.05
457,henties bay,0,NA,1525129569,100,-22.12,14.28,61.48,4.05
458,mayo,90,CA,1525125600,34,63.59,-135.9,50.0,9.17
459,arsk,0,RU,1525127400,93,56.09,49.88,44.6,11.18
460,moron,40,VE,1525125600,52,10.49,-68.2,89.6,3.36
461,winfield,1,US,1525127700,25,41.41,-87.28,80.6,14.99
462,robertsport,48,LR,1525129570,98,6.75,-11.37,82.81,6.96
463,hay river,75,CA,1525125600,75,60.82,-115.79,41.0,16.11
464,oshkosh,1,US,1525128960,29,44.02,-88.54,80.6,19.46
465,dwarka,40,IN,1525125600,54,28.58,77.04,84.2,9.17
466,voi,64,KE,1525129570,95,-3.4,38.57,68.5,4.16
467,voronezh,0,RU,1525127400,48,51.65,39.21,62.6,6.71
468,pervomayskoye,44,RU,1525129570,81,57.07,86.23,45.37,7.52
469,acari,24,BR,1525129571,97,-6.44,-36.64,68.41,8.52
470,harindanga,40,IN,1525127400,88,22.04,88.32,75.2,8.05
471,severodvinsk,0,RU,1525127400,73,64.56,39.82,24.8,4.47
472,puerto baquerizo moreno,75,EC,1525125600,70,-0.9,-89.6,84.2,13.87
473,nyurba,48,RU,1525129572,59,63.29,118.35,41.95,4.16
474,turayf,0,SA,1525125600,68,31.68,38.65,66.2,9.17
475,paoua,0,CF,1525129572,70,7.24,16.43,73.36,4.05
476,yar-sale,20,RU,1525129572,63,66.83,70.83,3.79,8.75
477,nelson bay,40,AU,1525127400,87,-32.72,152.14,59.0,10.29
478,joshimath,0,IN,1525129572,96,30.57,79.57,9.28,1.36
479,komsomolskiy,80,RU,1525129484,86,67.55,63.78,17.65,15.68
480,novobirilyussy,64,RU,1525129493,63,56.95,90.69,51.76,7.07
481,algiers,1,US,1525127700,47,29.94,-90.04,80.6,3.36
482,dalby,0,AU,1525125600,63,-27.18,151.26,64.4,10.29
483,qaqortoq,90,GL,1525125000,86,60.72,-46.03,26.6,10.29
484,alofi,40,NU,1525125600,83,-19.06,-169.92,82.4,6.93
485,coihaique,0,CL,1525125600,75,-45.58,-72.07,42.8,2.24
486,tabou,32,CI,1525129499,97,4.42,-7.36,83.17,8.75
487,nantucket,90,US,1525125360,75,41.28,-70.1,46.4,13.87
488,preobrazheniye,80,RU,1525129573,51,42.9,133.91,54.82,2.37
489,eureka,75,US,1525127700,62,40.8,-124.16,57.2,18.34
490,yibin,88,CN,1525129574,83,28.77,104.64,70.21,3.94
491,ust-nera,44,RU,1525129574,83,64.57,143.24,22.78,2.59
492,kabare,64,RW,1525129574,100,-1.65,29.38,56.89,2.59
493,yarada,12,IN,1525129574,98,17.65,83.27,84.88,11.43
494,portland,90,US,1525128780,54,45.52,-122.67,55.4,6.93
495,nizwa,64,OM,1525129574,39,22.93,57.53,72.19,4.05
496,ardabil,75,IR,1525125060,69,38.25,48.3,39.2,6.93
497,codrington,44,AU,1525129574,100,-28.95,153.24,61.48,4.61
498,rio grande,90,BR,1525124700,83,-32.03,-52.1,71.6,14.12
499,faanui,8,PF,1525129460,100,-16.48,-151.75,82.54,13.56
500,aksarka,0,RU,1525129575,72,66.56,67.8,8.74,6.96
501,santa cruz,75,US,1525128000,58,36.97,-122.03,66.2,16.11
502,beloha,12,MG,1525129439,91,-25.17,45.06,68.86,17.25
503,freeport,20,BS,1525125600,61,26.54,-78.7,78.8,16.11
504,segezha,8,RU,1525129576,83,63.74,34.31,21.43,4.94
505,zaliztsi,0,UA,1525129576,73,49.8,25.38,60.76,6.51
506,corinth,75,GR,1525126800,60,37.94,22.93,69.8,2.93
507,beyneu,0,KZ,1525129577,56,45.32,55.19,43.21,3.6
508,saint-pierre,90,FR,1525127400,86,48.95,4.24,42.8,14.99
509,dunedin,0,NZ,1525129578,95,-45.87,170.5,49.24,3.94
510,gwanda,48,ZW,1525129578,79,-20.94,29.0,60.31,9.08
511,saint-joseph,0,FR,1525127400,81,43.56,6.97,57.2,3.36
512,alyangula,44,AU,1525129578,92,-13.85,136.42,84.34,10.2
513,mettur,92,IN,1525129579,99,11.8,77.8,69.49,3.15
514,santa rosa,24,AR,1525129580,61,-36.62,-64.29,55.36,8.75
515,marathon,68,CA,1525129580,72,48.72,-86.38,46.36,14.56
516,chernyshevsk,8,RU,1525129580,38,52.51,117.01,41.86,3.49
517,tvedestrand,92,NO,1525126800,87,58.62,8.93,42.8,23.04
518,polunochnoye,8,RU,1525129580,73,60.87,60.43,24.04,5.73
519,catuday,8,PH,1525129580,100,16.29,119.81,81.55,6.4
520,derzhavinsk,0,KZ,1525129581,80,51.1,66.31,34.48,2.93
521,port lincoln,8,AU,1525129454,85,-34.72,135.86,62.74,15.68
522,conceicao do araguaia,32,BR,1525129581,65,-8.26,-49.26,80.47,2.48
523,roald,48,NO,1525126800,81,62.58,6.12,42.8,11.41
524,gallup,1,US,1525125180,8,35.53,-108.74,69.8,16.11
525,jiayuguan,0,CN,1525129490,58,39.77,98.29,34.66,1.92
526,teguldet,56,RU,1525129581,93,57.31,88.17,49.06,4.61
527,kenora,1,CA,1525127700,58,49.76,-94.48,73.4,16.11
528,tarpon springs,75,US,1525127700,39,28.15,-82.76,86.0,11.41
529,fairbanks,90,US,1525125780,93,64.84,-147.72,39.2,5.82
530,chumikan,8,RU,1525129582,62,54.72,135.31,39.07,3.38
531,abu samrah,8,SY,1525129447,78,35.3,37.18,61.84,3.49
532,verkhnevilyuysk,48,RU,1525129582,71,63.45,120.31,39.97,4.38
533,salinopolis,88,BR,1525129582,100,-0.61,-47.36,77.14,5.06
534,eirunepe,92,BR,1525129582,95,-6.66,-69.87,74.98,2.59
535,kitami,75,JP,1525128300,87,43.8,143.9,46.4,5.82
536,egvekinot,0,RU,1525129583,83,66.32,-179.17,27.28,3.94
537,altamont,1,CA,1525128900,70,49.4,-98.5,42.8,18.34
538,najran,20,SA,1525125600,53,17.54,44.22,75.2,4.7
539,coahuayana,8,MX,1525129583,26,18.62,-100.35,89.2,3.38
540,poum,68,MK,1525129583,96,41.28,20.71,49.33,1.92
541,svobodnyy,76,RU,1525129583,84,53.85,40.53,58.15,7.96
542,qujing,8,CN,1525129583,73,25.49,103.8,59.14,7.96
543,bougouni,20,ML,1525129584,56,11.42,-7.49,83.26,9.98
544,tiznit,0,MA,1525129584,82,29.7,-9.73,57.52,15.01
545,sedkyrkeshch,0,RU,1525127400,80,61.72,50.96,35.6,8.95
546,pinega,0,RU,1525129584,82,64.7,43.39,16.66,2.37
547,klaksvik,80,FO,1525126800,81,62.23,-6.59,42.8,20.8
548,lewistown,1,US,1525127700,28,40.39,-90.15,80.6,18.34
549,tuatapere,76,NZ,1525129448,100,-46.13,167.69,53.74,17.13
550,talara,0,PE,1525129584,62,-4.58,-81.27,75.97,8.41
551,kirkuk,0,IQ,1525129585,57,35.47,44.4,60.04,8.63
552,zabol,0,IR,1525129498,58,31.03,61.49,74.62,23.73
553,tubigan,40,PH,1525125600,74,14.33,121.07,82.4,4.7
554,baykit,68,RU,1525129585,82,61.68,96.39,38.71,10.98
555,bacalar,40,MX,1525128960,66,18.68,-88.39,86.0,17.22
556,aden,92,YE,1525129585,99,12.79,45.03,83.17,9.42
557,toamasina,75,MG,1525125600,88,-18.17,49.38,71.6,6.93
558,manama,0,AE,1525125600,56,25.33,56.02,93.2,3.36
559,macia,92,MZ,1525129586,98,-25.03,33.09,69.04,7.4
560,sumbe,0,AO,1525129494,100,-11.2,13.84,76.51,4.05
